{
  "route_id": "202606051545704",
  "route_name": "tainan_city_1",
  "version": 1,
  "coordinates": [
    {
      "name": "臺南市文化中心",
      "latitude": 22.974756199999998,
      "longitude": 120.2215652
    },
    {
      "name": "臺南航空站",
      "latitude": 22.9481447,
      "longitude": 120.21618199999999
    },
    {
      "name": "戰鬥機起飛藝術圖",
      "latitude": 22.9299522,
      "longitude": 120.19804149999999
    },
    {
      "name": "台南市南區親水公園",
      "latitude": 22.9204521,
      "longitude": 120.175242
    },
    {
      "name": "水交社文化園區",
      "latitude": 22.9775942,
      "longitude": 120.2015339
    },
    {
      "name": "黑橋牌香腸博物館",
      "latitude": 22.9796712,
      "longitude": 120.1840579
    },
    {
      "name": "赤崁樓",
      "latitude": 22.997456699999997,
      "longitude": 120.20264929999999
    },
    {
      "name": "府城天險",
      "latitude": 23.0203299,
      "longitude": 120.1094712
    },
    {
      "name": "鹿耳門夢幻湖",
      "latitude": 23.0425567,
      "longitude": 120.0676244
    },
    {
      "name": "國立臺灣\ufffd\ufffd\ufffd史博物館",
      "latitude": 23.0579365,
      "longitude": 120.23516289999999
    }
  ]
}
