{
  "route_id": "kyoto-scenic-1",
  "route_name": "京都名所巡り",
  "version": 1,
  "coordinates": [
    {
      "name": "貴船神社 奥宮",
      "latitude": 35.1288,
      "longitude": 135.7652
    },
    {
      "name": "修学院離宮",
      "latitude": 35.0636,
      "longitude": 135.8085
    },
    {
      "name": "銀閣寺",
      "latitude": 35.0270,
      "longitude": 135.7982
    },
    {
      "name": "毘沙門堂",
      "latitude": 35.0014,
      "longitude": 135.8193
    },
    {
      "name": "清水寺",
      "latitude": 34.9947,
      "longitude": 135.7847
    },
    {
      "name": "二条城",
      "latitude": 35.0140,
      "longitude": 135.7484
    },
    {
      "name": "金閣寺",
      "latitude": 35.0394,
      "longitude": 135.7292
    },
    {
      "name": "嵐山 竹林小径",
      "latitude": 35.0168,
      "longitude": 135.6713
    },
    {
      "name": "大沢池",
      "latitude": 35.0281,
      "longitude": 135.6782
    },
    {
      "name": "亀山公園",
      "latitude": 35.0603,
      "longitude": 135.6786
    }
  ]
}
